[
{
	"City": "Jackson",
	"State": "MS",
	"latitude": 32.3163,
	"longitude": -90.2124
},
{
	"City": "Gulfport",
	"State": "MS",
	"latitude": 30.4271,
	"longitude": -89.0703
},
{
	"City": "Hattiesburg",
	"State": "MS",
	"latitude": 31.3074,
	"longitude": -89.317
},
{
	"City": "Southaven",
	"State": "MS",
	"latitude": 34.9514,
	"longitude": -89.9787
},
{
	"City": "Pascagoula",
	"State": "MS",
	"latitude": 30.3665,
	"longitude": -88.5507
},
{
	"City": "Biloxi",
	"State": "MS",
	"latitude": 30.4422,
	"longitude": -88.9512
},
{
	"City": "Tupelo",
	"State": "MS",
	"latitude": 34.2692,
	"longitude": -88.7318
},
{
	"City": "Olive Branch",
	"State": "MS",
	"latitude": 34.961,
	"longitude": -89.8469
},
{
	"City": "Oxford",
	"State": "MS",
	"latitude": 34.3627,
	"longitude": -89.5336
},
{
	"City": "Meridian",
	"State": "MS",
	"latitude": 32.3846,
	"longitude": -88.6896
},
{
	"City": "Starkville",
	"State": "MS",
	"latitude": 33.4608,
	"longitude": -88.8297
},
{
	"City": "Columbus",
	"State": "MS",
	"latitude": 33.5088,
	"longitude": -88.4096
},
{
	"City": "Greenville",
	"State": "MS",
	"latitude": 33.385,
	"longitude": -91.0514
},
{
	"City": "Horn Lake",
	"State": "MS",
	"latitude": 34.9512,
	"longitude": -90.0501
},
{
	"City": "Pearl",
	"State": "MS",
	"latitude": 32.273,
	"longitude": -90.0918
},
{
	"City": "Vicksburg",
	"State": "MS",
	"latitude": 32.3173,
	"longitude": -90.8868
},
{
	"City": "Natchez",
	"State": "MS",
	"latitude": 31.5437,
	"longitude": -91.3867
},
{
	"City": "Laurel",
	"State": "MS",
	"latitude": 31.6956,
	"longitude": -89.1448
},
{
	"City": "Madison",
	"State": "MS",
	"latitude": 32.4738,
	"longitude": -90.13
},
{
	"City": "Clinton",
	"State": "MS",
	"latitude": 32.354,
	"longitude": -90.3403
},
{
	"City": "Brandon",
	"State": "MS",
	"latitude": 32.2778,
	"longitude": -89.9896
},
{
	"City": "Ridgeland",
	"State": "MS",
	"latitude": 32.4236,
	"longitude": -90.1481
},
{
	"City": "Greenwood",
	"State": "MS",
	"latitude": 33.5126,
	"longitude": -90.1993
},
{
	"City": "Gautier",
	"State": "MS",
	"latitude": 30.4106,
	"longitude": -88.6568
},
{
	"City": "Ocean Springs",
	"State": "MS",
	"latitude": 30.4082,
	"longitude": -88.7861
},
{
	"City": "Picayune",
	"State": "MS",
	"latitude": 30.5322,
	"longitude": -89.6724
},
{
	"City": "McComb",
	"State": "MS",
	"latitude": 31.2442,
	"longitude": -90.4717
},
{
	"City": "Hernando",
	"State": "MS",
	"latitude": 34.85,
	"longitude": -89.9922
},
{
	"City": "Long Beach",
	"State": "MS",
	"latitude": 30.3608,
	"longitude": -89.165
},
{
	"City": "Clarksdale",
	"State": "MS",
	"latitude": 34.1971,
	"longitude": -90.5729
},
{
	"City": "Yazoo City",
	"State": "MS",
	"latitude": 32.8618,
	"longitude": -90.4067
},
{
	"City": "Corinth",
	"State": "MS",
	"latitude": 34.9474,
	"longitude": -88.5143
},
{
	"City": "Cleveland",
	"State": "MS",
	"latitude": 33.744,
	"longitude": -90.7285
},
{
	"City": "Canton",
	"State": "MS",
	"latitude": 32.5975,
	"longitude": -90.0317
},
{
	"City": "Bay St. Louis",
	"State": "MS",
	"latitude": 30.3281,
	"longitude": -89.3774
},
{
	"City": "D'Iberville",
	"State": "MS",
	"latitude": 30.4709,
	"longitude": -88.9011
},
{
	"City": "Moss Point",
	"State": "MS",
	"latitude": 30.424,
	"longitude": -88.5289
},
{
	"City": "Grenada",
	"State": "MS",
	"latitude": 33.7816,
	"longitude": -89.813
},
{
	"City": "Brookhaven",
	"State": "MS",
	"latitude": 31.5803,
	"longitude": -90.4432
},
{
	"City": "Byram",
	"State": "MS",
	"latitude": 32.189,
	"longitude": -90.2861
},
{
	"City": "Petal",
	"State": "MS",
	"latitude": 31.3477,
	"longitude": -89.2359
},
{
	"City": "West Point",
	"State": "MS",
	"latitude": 33.6064,
	"longitude": -88.6571
},
{
	"City": "Flowood",
	"State": "MS",
	"latitude": 32.3359,
	"longitude": -90.0802
},
{
	"City": "Indianola",
	"State": "MS",
	"latitude": 33.4492,
	"longitude": -90.6447
},
{
	"City": "New Albany",
	"State": "MS",
	"latitude": 34.4909,
	"longitude": -89.0201
},
{
	"City": "Booneville",
	"State": "MS",
	"latitude": 34.6643,
	"longitude": -88.5684
},
{
	"City": "Gulf Hills",
	"State": "MS",
	"latitude": 30.4365,
	"longitude": -88.8149
},
{
	"City": "Diamondhead",
	"State": "MS",
	"latitude": 30.3791,
	"longitude": -89.3708
},
{
	"City": "St. Martin",
	"State": "MS",
	"latitude": 30.4399,
	"longitude": -88.8651
},
{
	"City": "Holly Springs",
	"State": "MS",
	"latitude": 34.7768,
	"longitude": -89.4466
},
{
	"City": "Senatobia",
	"State": "MS",
	"latitude": 34.6081,
	"longitude": -89.9762
},
{
	"City": "Philadelphia",
	"State": "MS",
	"latitude": 32.7761,
	"longitude": -89.1221
},
{
	"City": "Richland",
	"State": "MS",
	"latitude": 32.2309,
	"longitude": -90.1592
},
{
	"City": "Batesville",
	"State": "MS",
	"latitude": 34.3147,
	"longitude": -89.9249
},
{
	"City": "Gulf Park Estates",
	"State": "MS",
	"latitude": 30.3801,
	"longitude": -88.7581
},
{
	"City": "Latimer",
	"State": "MS",
	"latitude": 30.4972,
	"longitude": -88.8607
},
{
	"City": "Amory",
	"State": "MS",
	"latitude": 33.9813,
	"longitude": -88.4823
},
{
	"City": "Kosciusko",
	"State": "MS",
	"latitude": 33.0584,
	"longitude": -89.5893
},
{
	"City": "Columbia",
	"State": "MS",
	"latitude": 31.2564,
	"longitude": -89.8266
},
{
	"City": "West Hattiesburg",
	"State": "MS",
	"latitude": 31.3114,
	"longitude": -89.374
},
{
	"City": "Pass Christian",
	"State": "MS",
	"latitude": 30.327,
	"longitude": -89.2436
},
{
	"City": "Waveland",
	"State": "MS",
	"latitude": 30.293,
	"longitude": -89.3904
},
{
	"City": "Pontotoc",
	"State": "MS",
	"latitude": 34.2532,
	"longitude": -89.0091
},
{
	"City": "Louisville",
	"State": "MS",
	"latitude": 33.1224,
	"longitude": -89.0553
},
{
	"City": "Forest",
	"State": "MS",
	"latitude": 32.3595,
	"longitude": -89.4761
},
{
	"City": "Ripley",
	"State": "MS",
	"latitude": 34.7321,
	"longitude": -88.9444
},
{
	"City": "Aberdeen",
	"State": "MS",
	"latitude": 33.8287,
	"longitude": -88.5539
},
{
	"City": "Saltillo",
	"State": "MS",
	"latitude": 34.3789,
	"longitude": -88.6939
},
{
	"City": "Vancleave",
	"State": "MS",
	"latitude": 30.5483,
	"longitude": -88.6675
},
{
	"City": "Crystal Springs",
	"State": "MS",
	"latitude": 31.9903,
	"longitude": -90.354
},
{
	"City": "Waynesboro",
	"State": "MS",
	"latitude": 31.6773,
	"longitude": -88.6353
},
{
	"City": "Carthage",
	"State": "MS",
	"latitude": 32.7431,
	"longitude": -89.5337
},
{
	"City": "Ellisville",
	"State": "MS",
	"latitude": 31.5969,
	"longitude": -89.2091
},
{
	"City": "Wiggins",
	"State": "MS",
	"latitude": 30.8557,
	"longitude": -89.1385
},
{
	"City": "Hazlehurst",
	"State": "MS",
	"latitude": 31.8646,
	"longitude": -90.3929
},
{
	"City": "Florence",
	"State": "MS",
	"latitude": 32.1557,
	"longitude": -90.1225
},
{
	"City": "Pearl River",
	"State": "MS",
	"latitude": 32.7889,
	"longitude": -89.2384
},
{
	"City": "Magee",
	"State": "MS",
	"latitude": 31.8731,
	"longitude": -89.734
},
{
	"City": "University",
	"State": "MS",
	"latitude": 34.3656,
	"longitude": -89.5379
},
{
	"City": "Belzoni",
	"State": "MS",
	"latitude": 33.1804,
	"longitude": -90.4863
},
{
	"City": "Fulton",
	"State": "MS",
	"latitude": 34.2616,
	"longitude": -88.4021
},
{
	"City": "Winona",
	"State": "MS",
	"latitude": 33.4899,
	"longitude": -89.728
},
{
	"City": "New Hope",
	"State": "MS",
	"latitude": 33.4521,
	"longitude": -88.3399
},
{
	"City": "Leland",
	"State": "MS",
	"latitude": 33.4051,
	"longitude": -90.891
},
{
	"City": "Itta Bena",
	"State": "MS",
	"latitude": 33.5003,
	"longitude": -90.3256
},
{
	"City": "Mississippi State",
	"State": "MS",
	"latitude": 33.4515,
	"longitude": -88.7913
},
{
	"City": "Morton",
	"State": "MS",
	"latitude": 32.3455,
	"longitude": -89.6572
},
{
	"City": "Raymond",
	"State": "MS",
	"latitude": 32.2609,
	"longitude": -90.4083
},
{
	"City": "Houston",
	"State": "MS",
	"latitude": 33.8963,
	"longitude": -89.0031
},
{
	"City": "Tutwiler",
	"State": "MS",
	"latitude": 34.0172,
	"longitude": -90.4333
},
{
	"City": "Baldwyn",
	"State": "MS",
	"latitude": 34.5071,
	"longitude": -88.6416
},
{
	"City": "Water Valley",
	"State": "MS",
	"latitude": 34.1622,
	"longitude": -89.6301
},
{
	"City": "Verona",
	"State": "MS",
	"latitude": 34.1907,
	"longitude": -88.7203
},
{
	"City": "Newton",
	"State": "MS",
	"latitude": 32.3296,
	"longitude": -89.1534
},
{
	"City": "Lucedale",
	"State": "MS",
	"latitude": 30.9312,
	"longitude": -88.5959
},
{
	"City": "Beechwood",
	"State": "MS",
	"latitude": 32.3303,
	"longitude": -90.819
},
{
	"City": "Iuka",
	"State": "MS",
	"latitude": 34.8077,
	"longitude": -88.1978
},
{
	"City": "Poplarville",
	"State": "MS",
	"latitude": 30.8391,
	"longitude": -89.5306
},
{
	"City": "Marks",
	"State": "MS",
	"latitude": 34.2535,
	"longitude": -90.2723
},
{
	"City": "Guntown",
	"State": "MS",
	"latitude": 34.4447,
	"longitude": -88.6641
},
{
	"City": "Macon",
	"State": "MS",
	"latitude": 33.1217,
	"longitude": -88.5564
},
{
	"City": "Okolona",
	"State": "MS",
	"latitude": 34.0053,
	"longitude": -88.7479
},
{
	"City": "Ruleville",
	"State": "MS",
	"latitude": 33.7245,
	"longitude": -90.55
},
{
	"City": "Nicholson",
	"State": "MS",
	"latitude": 30.4866,
	"longitude": -89.6997
},
{
	"City": "Lynchburg",
	"State": "MS",
	"latitude": 34.9623,
	"longitude": -90.1052
},
{
	"City": "Charleston",
	"State": "MS",
	"latitude": 34.0075,
	"longitude": -90.0552
},
{
	"City": "Collins",
	"State": "MS",
	"latitude": 31.6469,
	"longitude": -89.5669
},
{
	"City": "Hide-A-Way Lake",
	"State": "MS",
	"latitude": 30.574,
	"longitude": -89.6419
},
{
	"City": "Purvis",
	"State": "MS",
	"latitude": 31.145,
	"longitude": -89.4054
},
{
	"City": "Mendenhall",
	"State": "MS",
	"latitude": 31.9609,
	"longitude": -89.8692
},
{
	"City": "Lyman",
	"State": "MS",
	"latitude": 30.5044,
	"longitude": -89.1348
},
{
	"City": "Bridgetown",
	"State": "MS",
	"latitude": 34.8907,
	"longitude": -89.9069
},
{
	"City": "Kiln",
	"State": "MS",
	"latitude": 30.4171,
	"longitude": -89.4322
},
{
	"City": "Hollandale",
	"State": "MS",
	"latitude": 33.1761,
	"longitude": -90.8529
},
{
	"City": "Durant",
	"State": "MS",
	"latitude": 33.0799,
	"longitude": -89.8566
},
{
	"City": "Tunica Resorts",
	"State": "MS",
	"latitude": 34.8298,
	"longitude": -90.3218
},
{
	"City": "Escatawpa",
	"State": "MS",
	"latitude": 30.4912,
	"longitude": -88.5495
},
{
	"City": "Lumberton",
	"State": "MS",
	"latitude": 31.0064,
	"longitude": -89.4592
},
{
	"City": "Magnolia",
	"State": "MS",
	"latitude": 31.1619,
	"longitude": -90.467
},
{
	"City": "Moorhead",
	"State": "MS",
	"latitude": 33.4494,
	"longitude": -90.5063
},
{
	"City": "Farmington",
	"State": "MS",
	"latitude": 34.9224,
	"longitude": -88.4432
},
{
	"City": "Glendale",
	"State": "MS",
	"latitude": 31.368,
	"longitude": -89.3086
},
{
	"City": "Arnold Line",
	"State": "MS",
	"latitude": 31.3372,
	"longitude": -89.3772
},
{
	"City": "Quitman",
	"State": "MS",
	"latitude": 32.0417,
	"longitude": -88.7202
},
{
	"City": "Eupora",
	"State": "MS",
	"latitude": 33.5436,
	"longitude": -89.2766
},
{
	"City": "Belmont",
	"State": "MS",
	"latitude": 34.5046,
	"longitude": -88.208
},
{
	"City": "Shelby",
	"State": "MS",
	"latitude": 33.9508,
	"longitude": -90.7653
},
{
	"City": "Rolling Fork",
	"State": "MS",
	"latitude": 32.9073,
	"longitude": -90.8769
},
{
	"City": "Tchula",
	"State": "MS",
	"latitude": 33.1831,
	"longitude": -90.2232
},
{
	"City": "Nettleton",
	"State": "MS",
	"latitude": 34.0853,
	"longitude": -88.6248
},
{
	"City": "Union",
	"State": "MS",
	"latitude": 32.5711,
	"longitude": -89.1152
},
{
	"City": "Sumrall",
	"State": "MS",
	"latitude": 31.4172,
	"longitude": -89.5424
},
{
	"City": "Flora",
	"State": "MS",
	"latitude": 32.5433,
	"longitude": -90.3141
},
{
	"City": "Bruce",
	"State": "MS",
	"latitude": 33.9909,
	"longitude": -89.3454
},
{
	"City": "Kearney Park",
	"State": "MS",
	"latitude": 32.5897,
	"longitude": -90.3158
},
{
	"City": "Morgantown",
	"State": "MS",
	"latitude": 31.5751,
	"longitude": -91.3521
},
{
	"City": "Shannon",
	"State": "MS",
	"latitude": 34.1144,
	"longitude": -88.6931
},
{
	"City": "Wesson",
	"State": "MS",
	"latitude": 31.7,
	"longitude": -90.396
},
{
	"City": "Decatur",
	"State": "MS",
	"latitude": 32.4339,
	"longitude": -89.1092
},
{
	"City": "Shaw",
	"State": "MS",
	"latitude": 33.6015,
	"longitude": -90.772
},
{
	"City": "Walnut Grove",
	"State": "MS",
	"latitude": 32.5932,
	"longitude": -89.4578
},
{
	"City": "Calhoun City",
	"State": "MS",
	"latitude": 33.8588,
	"longitude": -89.3145
},
{
	"City": "Columbus AFB",
	"State": "MS",
	"latitude": 33.6276,
	"longitude": -88.4454
},
{
	"City": "Bay Springs",
	"State": "MS",
	"latitude": 31.9772,
	"longitude": -89.2792
},
{
	"City": "Duck Hill",
	"State": "MS",
	"latitude": 33.6316,
	"longitude": -89.7153
},
{
	"City": "Drew",
	"State": "MS",
	"latitude": 33.8101,
	"longitude": -90.5304
},
{
	"City": "Rosedale",
	"State": "MS",
	"latitude": 33.8525,
	"longitude": -91.0339
},
{
	"City": "Sardis",
	"State": "MS",
	"latitude": 34.4355,
	"longitude": -89.9114
},
{
	"City": "Summit",
	"State": "MS",
	"latitude": 31.2808,
	"longitude": -90.467
},
{
	"City": "Coldwater",
	"State": "MS",
	"latitude": 34.6902,
	"longitude": -89.9757
},
{
	"City": "Nellieburg",
	"State": "MS",
	"latitude": 32.3973,
	"longitude": -88.783
},
{
	"City": "Collinsville",
	"State": "MS",
	"latitude": 32.4912,
	"longitude": -88.8452
},
{
	"City": "Marion",
	"State": "MS",
	"latitude": 32.4272,
	"longitude": -88.6502
},
{
	"City": "Monticello",
	"State": "MS",
	"latitude": 31.5525,
	"longitude": -90.1145
},
{
	"City": "Lexington",
	"State": "MS",
	"latitude": 33.1163,
	"longitude": -90.0498
},
{
	"City": "Ackerman",
	"State": "MS",
	"latitude": 33.311,
	"longitude": -89.1711
},
{
	"City": "Fayette",
	"State": "MS",
	"latitude": 31.7123,
	"longitude": -91.062
},
{
	"City": "Tylertown",
	"State": "MS",
	"latitude": 31.1173,
	"longitude": -90.1444
},
{
	"City": "Centreville",
	"State": "MS",
	"latitude": 31.087,
	"longitude": -91.0654
},
{
	"City": "Walls",
	"State": "MS",
	"latitude": 34.9257,
	"longitude": -90.1604
},
{
	"City": "Raleigh",
	"State": "MS",
	"latitude": 32.0322,
	"longitude": -89.5247
},
{
	"City": "Pelahatchie",
	"State": "MS",
	"latitude": 32.3148,
	"longitude": -89.8082
},
{
	"City": "Mound Bayou",
	"State": "MS",
	"latitude": 33.8808,
	"longitude": -90.728
},
{
	"City": "Lambert",
	"State": "MS",
	"latitude": 34.2006,
	"longitude": -90.2845
},
{
	"City": "Wade",
	"State": "MS",
	"latitude": 30.6401,
	"longitude": -88.5579
},
{
	"City": "Robinhood",
	"State": "MS",
	"latitude": 32.2045,
	"longitude": -89.9671
},
{
	"City": "Sharon",
	"State": "MS",
	"latitude": 31.7922,
	"longitude": -89.0983
},
{
	"City": "Port Gibson",
	"State": "MS",
	"latitude": 31.9558,
	"longitude": -90.9834
},
{
	"City": "Hurley",
	"State": "MS",
	"latitude": 30.6638,
	"longitude": -88.4994
},
{
	"City": "Vardaman",
	"State": "MS",
	"latitude": 33.8822,
	"longitude": -89.1778
},
{
	"City": "Cleary",
	"State": "MS",
	"latitude": 32.1635,
	"longitude": -90.182
},
{
	"City": "Hillsboro",
	"State": "MS",
	"latitude": 32.4491,
	"longitude": -89.4889
},
{
	"City": "Taylorsville",
	"State": "MS",
	"latitude": 31.8322,
	"longitude": -89.434
},
{
	"City": "Mississippi Valley State University",
	"State": "MS",
	"latitude": 33.5172,
	"longitude": -90.3444
},
{
	"City": "Terry",
	"State": "MS",
	"latitude": 32.1047,
	"longitude": -90.298
},
{
	"City": "Byhalia",
	"State": "MS",
	"latitude": 34.869,
	"longitude": -89.689
},
{
	"City": "DeLisle",
	"State": "MS",
	"latitude": 30.3848,
	"longitude": -89.2746
},
{
	"City": "Helena",
	"State": "MS",
	"latitude": 30.4881,
	"longitude": -88.5056
},
{
	"City": "Como",
	"State": "MS",
	"latitude": 34.5134,
	"longitude": -89.9391
},
{
	"City": "Saucier",
	"State": "MS",
	"latitude": 30.6239,
	"longitude": -89.1432
},
{
	"City": "Goodman",
	"State": "MS",
	"latitude": 32.9677,
	"longitude": -89.9128
},
{
	"City": "Conehatta",
	"State": "MS",
	"latitude": 32.4601,
	"longitude": -89.2785
},
{
	"City": "Plantersville",
	"State": "MS",
	"latitude": 34.2103,
	"longitude": -88.6655
},
{
	"City": "Mantachie",
	"State": "MS",
	"latitude": 34.325,
	"longitude": -88.4961
},
{
	"City": "Jonestown",
	"State": "MS",
	"latitude": 34.3222,
	"longitude": -90.4542
},
{
	"City": "Brooksville",
	"State": "MS",
	"latitude": 33.2367,
	"longitude": -88.5781
},
{
	"City": "Mooreville",
	"State": "MS",
	"latitude": 34.2648,
	"longitude": -88.5769
},
{
	"City": "Caledonia",
	"State": "MS",
	"latitude": 33.6836,
	"longitude": -88.326
},
{
	"City": "Rawls Springs",
	"State": "MS",
	"latitude": 31.3797,
	"longitude": -89.3878
},
{
	"City": "Ecru",
	"State": "MS",
	"latitude": 34.355,
	"longitude": -89.0222
},
{
	"City": "Friars Point",
	"State": "MS",
	"latitude": 34.368,
	"longitude": -90.6379
},
{
	"City": "Richton",
	"State": "MS",
	"latitude": 31.3495,
	"longitude": -88.9407
},
{
	"City": "De Kalb",
	"State": "MS",
	"latitude": 32.7707,
	"longitude": -88.656
},
{
	"City": "Edwards",
	"State": "MS",
	"latitude": 32.3326,
	"longitude": -90.6055
},
{
	"City": "Bude",
	"State": "MS",
	"latitude": 31.463,
	"longitude": -90.8509
},
{
	"City": "Pickens",
	"State": "MS",
	"latitude": 32.8913,
	"longitude": -89.9696
},
{
	"City": "Sunflower",
	"State": "MS",
	"latitude": 33.5444,
	"longitude": -90.5373
},
{
	"City": "Stonewall",
	"State": "MS",
	"latitude": 32.1364,
	"longitude": -88.7958
},
{
	"City": "Derma",
	"State": "MS",
	"latitude": 33.8589,
	"longitude": -89.2878
},
{
	"City": "Alcorn State University",
	"State": "MS",
	"latitude": 31.8804,
	"longitude": -91.1407
},
{
	"City": "Metcalfe",
	"State": "MS",
	"latitude": 33.4505,
	"longitude": -91.0017
},
{
	"City": "Vaiden",
	"State": "MS",
	"latitude": 33.3332,
	"longitude": -89.7533
},
{
	"City": "Blue Mountain",
	"State": "MS",
	"latitude": 34.6739,
	"longitude": -89.0262
},
{
	"City": "Elliott",
	"State": "MS",
	"latitude": 33.6913,
	"longitude": -89.7525
},
{
	"City": "Burnsville",
	"State": "MS",
	"latitude": 34.8348,
	"longitude": -88.3178
},
{
	"City": "Prentiss",
	"State": "MS",
	"latitude": 31.5995,
	"longitude": -89.8746
},
{
	"City": "Toomsuba",
	"State": "MS",
	"latitude": 32.4267,
	"longitude": -88.51
},
{
	"City": "Big Point",
	"State": "MS",
	"latitude": 30.5905,
	"longitude": -88.4846
},
{
	"City": "Woodville",
	"State": "MS",
	"latitude": 31.1029,
	"longitude": -91.2992
},
{
	"City": "Beaumont",
	"State": "MS",
	"latitude": 31.1707,
	"longitude": -88.9252
},
{
	"City": "Mount Olive",
	"State": "MS",
	"latitude": 31.7539,
	"longitude": -89.656
},
{
	"City": "Pearlington",
	"State": "MS",
	"latitude": 30.2492,
	"longitude": -89.6047
},
{
	"City": "Leakesville",
	"State": "MS",
	"latitude": 31.1545,
	"longitude": -88.558
},
{
	"City": "North Tunica",
	"State": "MS",
	"latitude": 34.7032,
	"longitude": -90.3796
},
{
	"City": "Utica",
	"State": "MS",
	"latitude": 32.1061,
	"longitude": -90.6221
},
{
	"City": "Gloster",
	"State": "MS",
	"latitude": 31.1951,
	"longitude": -91.0176
},
{
	"City": "Inverness",
	"State": "MS",
	"latitude": 33.3543,
	"longitude": -90.5913
},
{
	"City": "Tunica",
	"State": "MS",
	"latitude": 34.6881,
	"longitude": -90.381
},
{
	"City": "Crenshaw",
	"State": "MS",
	"latitude": 34.5047,
	"longitude": -90.1946
},
{
	"City": "Maben",
	"State": "MS",
	"latitude": 33.5544,
	"longitude": -89.0805
},
{
	"City": "Coffeeville",
	"State": "MS",
	"latitude": 33.9765,
	"longitude": -89.6845
},
{
	"City": "Polkville",
	"State": "MS",
	"latitude": 32.1909,
	"longitude": -89.696
},
{
	"City": "Walnut",
	"State": "MS",
	"latitude": 34.9497,
	"longitude": -88.9236
},
{
	"City": "Renova",
	"State": "MS",
	"latitude": 33.7805,
	"longitude": -90.7232
},
{
	"City": "Smithville",
	"State": "MS",
	"latitude": 34.068,
	"longitude": -88.3983
},
{
	"City": "Tucker",
	"State": "MS",
	"latitude": 32.7081,
	"longitude": -89.05
},
{
	"City": "Sandersville",
	"State": "MS",
	"latitude": 31.7879,
	"longitude": -89.0362
},
{
	"City": "Sherman",
	"State": "MS",
	"latitude": 34.3611,
	"longitude": -88.8387
},
{
	"City": "Algoma",
	"State": "MS",
	"latitude": 34.1788,
	"longitude": -89.0336
},
{
	"City": "Scooba",
	"State": "MS",
	"latitude": 32.8302,
	"longitude": -88.4771
},
{
	"City": "Thaxton",
	"State": "MS",
	"latitude": 34.3071,
	"longitude": -89.1745
},
{
	"City": "Liberty",
	"State": "MS",
	"latitude": 31.1611,
	"longitude": -90.8006
},
{
	"City": "Cloverdale",
	"State": "MS",
	"latitude": 31.496,
	"longitude": -91.4152
},
{
	"City": "Mathiston",
	"State": "MS",
	"latitude": 33.539,
	"longitude": -89.1277
},
{
	"City": "Meridian Station",
	"State": "MS",
	"latitude": 32.5485,
	"longitude": -88.6092
},
{
	"City": "Heidelberg",
	"State": "MS",
	"latitude": 31.8898,
	"longitude": -88.9879
},
{
	"City": "Crawford",
	"State": "MS",
	"latitude": 33.3023,
	"longitude": -88.6253
},
{
	"City": "Redwater",
	"State": "MS",
	"latitude": 32.7835,
	"longitude": -89.5559
},
{
	"City": "Crowder",
	"State": "MS",
	"latitude": 34.1729,
	"longitude": -90.1377
},
{
	"City": "Anguilla",
	"State": "MS",
	"latitude": 32.9719,
	"longitude": -90.8284
},
{
	"City": "Isola",
	"State": "MS",
	"latitude": 33.2634,
	"longitude": -90.5923
},
{
	"City": "New Houlka",
	"State": "MS",
	"latitude": 34.0363,
	"longitude": -89.0211
},
{
	"City": "New Augusta",
	"State": "MS",
	"latitude": 31.2036,
	"longitude": -89.0272
},
{
	"City": "Mayersville",
	"State": "MS",
	"latitude": 32.8964,
	"longitude": -91.0467
},
{
	"City": "Boyle",
	"State": "MS",
	"latitude": 33.7065,
	"longitude": -90.7249
},
{
	"City": "New Hamilton",
	"State": "MS",
	"latitude": 33.7435,
	"longitude": -88.4389
},
{
	"City": "Kilmichael",
	"State": "MS",
	"latitude": 33.4404,
	"longitude": -89.5674
},
{
	"City": "State Line",
	"State": "MS",
	"latitude": 31.436,
	"longitude": -88.4738
},
{
	"City": "Standing Pine",
	"State": "MS",
	"latitude": 32.6749,
	"longitude": -89.4529
},
{
	"City": "Bogue Chitto",
	"State": "MS",
	"latitude": 32.8338,
	"longitude": -88.9189
},
{
	"City": "Hickory Flat",
	"State": "MS",
	"latitude": 34.616,
	"longitude": -89.1913
},
{
	"City": "Bolton",
	"State": "MS",
	"latitude": 32.3546,
	"longitude": -90.4586
},
{
	"City": "Hickory",
	"State": "MS",
	"latitude": 32.3167,
	"longitude": -89.0217
},
{
	"City": "Ashland",
	"State": "MS",
	"latitude": 34.8341,
	"longitude": -89.1778
},
{
	"City": "Courtland",
	"State": "MS",
	"latitude": 34.2409,
	"longitude": -89.9433
},
{
	"City": "Oakland",
	"State": "MS",
	"latitude": 34.0557,
	"longitude": -89.9151
},
{
	"City": "Myrtle",
	"State": "MS",
	"latitude": 34.5605,
	"longitude": -89.1179
},
{
	"City": "Buckatunna",
	"State": "MS",
	"latitude": 31.5423,
	"longitude": -88.5293
},
{
	"City": "Falkner",
	"State": "MS",
	"latitude": 34.8381,
	"longitude": -88.9424
},
{
	"City": "Jumpertown",
	"State": "MS",
	"latitude": 34.708,
	"longitude": -88.662
},
{
	"City": "Webb",
	"State": "MS",
	"latitude": 33.9478,
	"longitude": -90.3464
},
{
	"City": "Sledge",
	"State": "MS",
	"latitude": 34.4327,
	"longitude": -90.2213
},
{
	"City": "Enterprise",
	"State": "MS",
	"latitude": 32.1731,
	"longitude": -88.8163
},
{
	"City": "Foxworth",
	"State": "MS",
	"latitude": 31.2386,
	"longitude": -89.8829
},
{
	"City": "Potts Camp",
	"State": "MS",
	"latitude": 34.6492,
	"longitude": -89.3065
},
{
	"City": "Roxie",
	"State": "MS",
	"latitude": 31.5046,
	"longitude": -91.0674
},
{
	"City": "Sidon",
	"State": "MS",
	"latitude": 33.4079,
	"longitude": -90.2081
},
{
	"City": "Tremont",
	"State": "MS",
	"latitude": 34.2327,
	"longitude": -88.2507
},
{
	"City": "Hatley",
	"State": "MS",
	"latitude": 33.9773,
	"longitude": -88.4184
},
{
	"City": "Dumas",
	"State": "MS",
	"latitude": 34.638,
	"longitude": -88.8431
},
{
	"City": "Lauderdale",
	"State": "MS",
	"latitude": 32.5104,
	"longitude": -88.5264
},
{
	"City": "Taylor",
	"State": "MS",
	"latitude": 34.2691,
	"longitude": -89.5833
},
{
	"City": "Noxapater",
	"State": "MS",
	"latitude": 32.9936,
	"longitude": -89.0636
},
{
	"City": "D'Lo",
	"State": "MS",
	"latitude": 31.9869,
	"longitude": -89.9011
},
{
	"City": "McLain",
	"State": "MS",
	"latitude": 31.1037,
	"longitude": -88.8239
},
{
	"City": "Clara",
	"State": "MS",
	"latitude": 31.5831,
	"longitude": -88.6916
},
{
	"City": "Shuqualak",
	"State": "MS",
	"latitude": 32.9793,
	"longitude": -88.5693
},
{
	"City": "North Carrollton",
	"State": "MS",
	"latitude": 33.5186,
	"longitude": -89.9193
},
{
	"City": "Weir",
	"State": "MS",
	"latitude": 33.2635,
	"longitude": -89.2905
},
{
	"City": "Artesia",
	"State": "MS",
	"latitude": 33.4164,
	"longitude": -88.6425
},
{
	"City": "Benoit",
	"State": "MS",
	"latitude": 33.6517,
	"longitude": -91.0087
},
{
	"City": "Abbeville",
	"State": "MS",
	"latitude": 34.5034,
	"longitude": -89.5025
},
{
	"City": "New Hebron",
	"State": "MS",
	"latitude": 31.7332,
	"longitude": -89.9833
},
{
	"City": "Meadville",
	"State": "MS",
	"latitude": 31.4721,
	"longitude": -90.893
},
{
	"City": "Bentonia",
	"State": "MS",
	"latitude": 32.6437,
	"longitude": -90.3692
},
{
	"City": "Glen",
	"State": "MS",
	"latitude": 34.8585,
	"longitude": -88.4199
},
{
	"City": "Osyka",
	"State": "MS",
	"latitude": 31.0072,
	"longitude": -90.4719
},
{
	"City": "Gunnison",
	"State": "MS",
	"latitude": 33.9437,
	"longitude": -90.9468
},
{
	"City": "Shubuta",
	"State": "MS",
	"latitude": 31.862,
	"longitude": -88.7021
},
{
	"City": "Soso",
	"State": "MS",
	"latitude": 31.7535,
	"longitude": -89.2759
},
{
	"City": "Ethel",
	"State": "MS",
	"latitude": 33.122,
	"longitude": -89.465
},
{
	"City": "Duncan",
	"State": "MS",
	"latitude": 34.0418,
	"longitude": -90.7459
},
{
	"City": "Merigold",
	"State": "MS",
	"latitude": 33.8392,
	"longitude": -90.7264
},
{
	"City": "Hamilton",
	"State": "MS",
	"latitude": 33.746,
	"longitude": -88.4095
},
{
	"City": "Holcomb",
	"State": "MS",
	"latitude": 33.7643,
	"longitude": -89.9732
},
{
	"City": "Tishomingo",
	"State": "MS",
	"latitude": 34.6381,
	"longitude": -88.2291
},
{
	"City": "Puckett",
	"State": "MS",
	"latitude": 32.0872,
	"longitude": -89.7819
},
{
	"City": "Cruger",
	"State": "MS",
	"latitude": 33.323,
	"longitude": -90.2354
},
{
	"City": "Beulah",
	"State": "MS",
	"latitude": 33.7905,
	"longitude": -90.9802
},
{
	"City": "Lake",
	"State": "MS",
	"latitude": 32.3407,
	"longitude": -89.3295
},
{
	"City": "Beauregard",
	"State": "MS",
	"latitude": 31.721,
	"longitude": -90.3859
},
{
	"City": "Mize",
	"State": "MS",
	"latitude": 31.8672,
	"longitude": -89.5541
},
{
	"City": "Arcola",
	"State": "MS",
	"latitude": 33.2705,
	"longitude": -90.88
},
{
	"City": "Coahoma",
	"State": "MS",
	"latitude": 34.3664,
	"longitude": -90.522
},
{
	"City": "Chunky",
	"State": "MS",
	"latitude": 32.3275,
	"longitude": -88.9302
},
{
	"City": "Rienzi",
	"State": "MS",
	"latitude": 34.7633,
	"longitude": -88.534
},
{
	"City": "Snow Lake Shores",
	"State": "MS",
	"latitude": 34.8239,
	"longitude": -89.2385
},
{
	"City": "Lyon",
	"State": "MS",
	"latitude": 34.2169,
	"longitude": -90.5427
},
{
	"City": "Silver City",
	"State": "MS",
	"latitude": 33.0952,
	"longitude": -90.4967
},
{
	"City": "Schlater",
	"State": "MS",
	"latitude": 33.6397,
	"longitude": -90.3494
},
{
	"City": "Seminary",
	"State": "MS",
	"latitude": 31.5581,
	"longitude": -89.4987
},
{
	"City": "Crosby",
	"State": "MS",
	"latitude": 31.2791,
	"longitude": -91.063
},
{
	"City": "Sebastopol",
	"State": "MS",
	"latitude": 32.5679,
	"longitude": -89.334
},
{
	"City": "White Oak",
	"State": "MS",
	"latitude": 34.6438,
	"longitude": -90.3495
},
{
	"City": "Cary",
	"State": "MS",
	"latitude": 32.8056,
	"longitude": -90.9245
},
{
	"City": "Georgetown",
	"State": "MS",
	"latitude": 31.8698,
	"longitude": -90.1648
},
{
	"City": "Sumner",
	"State": "MS",
	"latitude": 33.9693,
	"longitude": -90.3693
},
{
	"City": "Sturgis",
	"State": "MS",
	"latitude": 33.3452,
	"longitude": -89.0458
},
{
	"City": "Louin",
	"State": "MS",
	"latitude": 32.0722,
	"longitude": -89.2626
},
{
	"City": "Toccopola",
	"State": "MS",
	"latitude": 34.2561,
	"longitude": -89.2211
},
{
	"City": "Marietta",
	"State": "MS",
	"latitude": 34.4999,
	"longitude": -88.4726
},
{
	"City": "Lula",
	"State": "MS",
	"latitude": 34.4545,
	"longitude": -90.4779
},
{
	"City": "Pope",
	"State": "MS",
	"latitude": 34.2158,
	"longitude": -89.9447
},
{
	"City": "Blue Springs",
	"State": "MS",
	"latitude": 34.4013,
	"longitude": -88.8721
},
{
	"City": "Pace",
	"State": "MS",
	"latitude": 33.7921,
	"longitude": -90.8593
},
{
	"City": "Morgan City",
	"State": "MS",
	"latitude": 33.3786,
	"longitude": -90.3461
},
{
	"City": "Pachuta",
	"State": "MS",
	"latitude": 32.0441,
	"longitude": -88.8844
},
{
	"City": "Darling",
	"State": "MS",
	"latitude": 34.3591,
	"longitude": -90.2754
},
{
	"City": "Mantee",
	"State": "MS",
	"latitude": 33.7226,
	"longitude": -89.0597
},
{
	"City": "Bassfield",
	"State": "MS",
	"latitude": 31.4959,
	"longitude": -89.7449
},
{
	"City": "Kossuth",
	"State": "MS",
	"latitude": 34.8726,
	"longitude": -88.6428
},
{
	"City": "Silver Creek",
	"State": "MS",
	"latitude": 31.6049,
	"longitude": -90.0022
},
{
	"City": "Pittsboro",
	"State": "MS",
	"latitude": 33.94,
	"longitude": -89.3373
},
{
	"City": "Farrell",
	"State": "MS",
	"latitude": 34.2617,
	"longitude": -90.675
},
{
	"City": "Golden",
	"State": "MS",
	"latitude": 34.4866,
	"longitude": -88.1863
},
{
	"City": "Alligator",
	"State": "MS",
	"latitude": 34.0899,
	"longitude": -90.7205
},
{
	"City": "Braxton",
	"State": "MS",
	"latitude": 32.0264,
	"longitude": -89.9715
},
{
	"City": "Carrollton",
	"State": "MS",
	"latitude": 33.5058,
	"longitude": -89.9218
},
{
	"City": "Louise",
	"State": "MS",
	"latitude": 32.9813,
	"longitude": -90.5904
},
{
	"City": "Winstonville",
	"State": "MS",
	"latitude": 33.9123,
	"longitude": -90.7529
},
{
	"City": "French Camp",
	"State": "MS",
	"latitude": 33.2931,
	"longitude": -89.3993
},
{
	"City": "Henderson Point",
	"State": "MS",
	"latitude": 30.3153,
	"longitude": -89.2864
},
{
	"City": "West",
	"State": "MS",
	"latitude": 33.1978,
	"longitude": -89.7821
},
{
	"City": "Big Creek",
	"State": "MS",
	"latitude": 33.8464,
	"longitude": -89.4159
},
{
	"City": "Falcon",
	"State": "MS",
	"latitude": 34.3911,
	"longitude": -90.2556
},
{
	"City": "Walthall",
	"State": "MS",
	"latitude": 33.6069,
	"longitude": -89.2787
},
{
	"City": "Lena",
	"State": "MS",
	"latitude": 32.5939,
	"longitude": -89.5948
},
{
	"City": "Montrose",
	"State": "MS",
	"latitude": 32.1257,
	"longitude": -89.2344
},
{
	"City": "Glendora",
	"State": "MS",
	"latitude": 33.8276,
	"longitude": -90.2927
},
{
	"City": "Woodland",
	"State": "MS",
	"latitude": 33.7797,
	"longitude": -89.0507
},
{
	"City": "Sallis",
	"State": "MS",
	"latitude": 33.0215,
	"longitude": -89.7647
},
{
	"City": "McCool",
	"State": "MS",
	"latitude": 33.1995,
	"longitude": -89.3418
},
{
	"City": "Eden",
	"State": "MS",
	"latitude": 32.9837,
	"longitude": -90.324
},
{
	"City": "Paden",
	"State": "MS",
	"latitude": 34.6603,
	"longitude": -88.2605
},
{
	"City": "Sylvarena",
	"State": "MS",
	"latitude": 32.0144,
	"longitude": -89.3818
},
{
	"City": "Slate Springs",
	"State": "MS",
	"latitude": 33.7417,
	"longitude": -89.3752
},
{
	"City": "Doddsville",
	"State": "MS",
	"latitude": 33.6599,
	"longitude": -90.5214
},
{
	"City": "Learned",
	"State": "MS",
	"latitude": 32.1972,
	"longitude": -90.5486
},
{
	"City": "Gattman",
	"State": "MS",
	"latitude": 33.8849,
	"longitude": -88.2367
},
{
	"City": "Satartia",
	"State": "MS",
	"latitude": 32.672,
	"longitude": -90.5445
},
{
	"City": "Tillatoba",
	"State": "MS",
	"latitude": 33.9851,
	"longitude": -89.8961
}]