[
{
	"City": "Salt Lake City",
	"State": "UT",
	"latitude": 40.7777,
	"longitude": -111.9306
},
{
	"City": "Ogden",
	"State": "UT",
	"latitude": 41.2278,
	"longitude": -111.9682
},
{
	"City": "Provo",
	"State": "UT",
	"latitude": 40.2457,
	"longitude": -111.6457
},
{
	"City": "West Valley City",
	"State": "UT",
	"latitude": 40.6889,
	"longitude": -112.0115
},
{
	"City": "St. George",
	"State": "UT",
	"latitude": 37.077,
	"longitude": -113.577
},
{
	"City": "West Jordan",
	"State": "UT",
	"latitude": 40.6024,
	"longitude": -112.0008
},
{
	"City": "Logan",
	"State": "UT",
	"latitude": 41.74,
	"longitude": -111.8419
},
{
	"City": "Orem",
	"State": "UT",
	"latitude": 40.2983,
	"longitude": -111.6992
},
{
	"City": "Sandy",
	"State": "UT",
	"latitude": 40.571,
	"longitude": -111.8505
},
{
	"City": "Layton",
	"State": "UT",
	"latitude": 41.0769,
	"longitude": -111.9621
},
{
	"City": "South Jordan",
	"State": "UT",
	"latitude": 40.557,
	"longitude": -111.9782
},
{
	"City": "Lehi",
	"State": "UT",
	"latitude": 40.4136,
	"longitude": -111.8726
},
{
	"City": "Millcreek",
	"State": "UT",
	"latitude": 40.6892,
	"longitude": -111.8291
},
{
	"City": "Taylorsville",
	"State": "UT",
	"latitude": 40.657,
	"longitude": -111.9493
},
{
	"City": "Herriman",
	"State": "UT",
	"latitude": 40.4899,
	"longitude": -112.0171
},
{
	"City": "Murray",
	"State": "UT",
	"latitude": 40.6498,
	"longitude": -111.8874
},
{
	"City": "Draper",
	"State": "UT",
	"latitude": 40.4957,
	"longitude": -111.8605
},
{
	"City": "Riverton",
	"State": "UT",
	"latitude": 40.5177,
	"longitude": -111.9635
},
{
	"City": "Bountiful",
	"State": "UT",
	"latitude": 40.8722,
	"longitude": -111.8647
},
{
	"City": "Spanish Fork",
	"State": "UT",
	"latitude": 40.1101,
	"longitude": -111.6406
},
{
	"City": "Cedar City",
	"State": "UT",
	"latitude": 37.6834,
	"longitude": -113.0956
},
{
	"City": "Roy",
	"State": "UT",
	"latitude": 41.1715,
	"longitude": -112.0485
},
{
	"City": "Eagle Mountain",
	"State": "UT",
	"latitude": 40.3137,
	"longitude": -112.0114
},
{
	"City": "Pleasant Grove",
	"State": "UT",
	"latitude": 40.3716,
	"longitude": -111.7412
},
{
	"City": "Kearns",
	"State": "UT",
	"latitude": 40.652,
	"longitude": -112.0093
},
{
	"City": "Tooele",
	"State": "UT",
	"latitude": 40.5393,
	"longitude": -112.3082
},
{
	"City": "Midvale",
	"State": "UT",
	"latitude": 40.6148,
	"longitude": -111.8928
},
{
	"City": "Cottonwood Heights",
	"State": "UT",
	"latitude": 40.6137,
	"longitude": -111.8144
},
{
	"City": "Springville",
	"State": "UT",
	"latitude": 40.1638,
	"longitude": -111.6206
},
{
	"City": "Saratoga Springs",
	"State": "UT",
	"latitude": 40.3449,
	"longitude": -111.9152
},
{
	"City": "American Fork",
	"State": "UT",
	"latitude": 40.3792,
	"longitude": -111.7952
},
{
	"City": "Kaysville",
	"State": "UT",
	"latitude": 41.029,
	"longitude": -111.9456
},
{
	"City": "Clearfield",
	"State": "UT",
	"latitude": 41.103,
	"longitude": -112.0237
},
{
	"City": "Syracuse",
	"State": "UT",
	"latitude": 41.086,
	"longitude": -112.0698
},
{
	"City": "Holladay",
	"State": "UT",
	"latitude": 40.6599,
	"longitude": -111.8226
},
{
	"City": "Washington",
	"State": "UT",
	"latitude": 37.1304,
	"longitude": -113.4877
},
{
	"City": "Magna",
	"State": "UT",
	"latitude": 40.7634,
	"longitude": -112.1599
},
{
	"City": "Heber",
	"State": "UT",
	"latitude": 40.5068,
	"longitude": -111.3984
},
{
	"City": "South Salt Lake",
	"State": "UT",
	"latitude": 40.7056,
	"longitude": -111.8986
},
{
	"City": "Farmington",
	"State": "UT",
	"latitude": 40.9846,
	"longitude": -111.9065
},
{
	"City": "Hurricane",
	"State": "UT",
	"latitude": 37.1487,
	"longitude": -113.3517
},
{
	"City": "Clinton",
	"State": "UT",
	"latitude": 41.1395,
	"longitude": -112.0656
},
{
	"City": "North Salt Lake",
	"State": "UT",
	"latitude": 40.8439,
	"longitude": -111.9187
},
{
	"City": "North Ogden",
	"State": "UT",
	"latitude": 41.3123,
	"longitude": -111.9585
},
{
	"City": "Payson",
	"State": "UT",
	"latitude": 40.036,
	"longitude": -111.7395
},
{
	"City": "Vernal",
	"State": "UT",
	"latitude": 40.4517,
	"longitude": -109.5379
},
{
	"City": "Brigham City",
	"State": "UT",
	"latitude": 41.5034,
	"longitude": -112.0454
},
{
	"City": "Highland",
	"State": "UT",
	"latitude": 40.4275,
	"longitude": -111.7955
},
{
	"City": "Centerville",
	"State": "UT",
	"latitude": 40.9284,
	"longitude": -111.8849
},
{
	"City": "South Ogden",
	"State": "UT",
	"latitude": 41.1722,
	"longitude": -111.9577
},
{
	"City": "Bluffdale",
	"State": "UT",
	"latitude": 40.4744,
	"longitude": -111.9381
},
{
	"City": "West Haven",
	"State": "UT",
	"latitude": 41.2082,
	"longitude": -112.054
},
{
	"City": "Park City",
	"State": "UT",
	"latitude": 40.6505,
	"longitude": -111.502
},
{
	"City": "Santaquin",
	"State": "UT",
	"latitude": 39.9711,
	"longitude": -111.7937
},
{
	"City": "Price",
	"State": "UT",
	"latitude": 39.604,
	"longitude": -110.8004
},
{
	"City": "Grantsville",
	"State": "UT",
	"latitude": 40.6148,
	"longitude": -112.4777
},
{
	"City": "Smithfield",
	"State": "UT",
	"latitude": 41.8347,
	"longitude": -111.8266
},
{
	"City": "Tremonton",
	"State": "UT",
	"latitude": 41.7187,
	"longitude": -112.1891
},
{
	"City": "Vineyard",
	"State": "UT",
	"latitude": 40.3059,
	"longitude": -111.7545
},
{
	"City": "Woods Cross",
	"State": "UT",
	"latitude": 40.8731,
	"longitude": -111.917
},
{
	"City": "North Logan",
	"State": "UT",
	"latitude": 41.7759,
	"longitude": -111.8066
},
{
	"City": "Lindon",
	"State": "UT",
	"latitude": 40.3414,
	"longitude": -111.7187
},
{
	"City": "West Point",
	"State": "UT",
	"latitude": 41.122,
	"longitude": -112.0994
},
{
	"City": "Pleasant View",
	"State": "UT",
	"latitude": 41.3249,
	"longitude": -112.0011
},
{
	"City": "Mapleton",
	"State": "UT",
	"latitude": 40.1188,
	"longitude": -111.5742
},
{
	"City": "Alpine",
	"State": "UT",
	"latitude": 40.4629,
	"longitude": -111.7724
},
{
	"City": "Cedar Hills",
	"State": "UT",
	"latitude": 40.4135,
	"longitude": -111.753
},
{
	"City": "Stansbury Park",
	"State": "UT",
	"latitude": 40.6356,
	"longitude": -112.3054
},
{
	"City": "Washington Terrace",
	"State": "UT",
	"latitude": 41.1683,
	"longitude": -111.9783
},
{
	"City": "Ivins",
	"State": "UT",
	"latitude": 37.1742,
	"longitude": -113.6809
},
{
	"City": "Hooper",
	"State": "UT",
	"latitude": 41.1599,
	"longitude": -112.2871
},
{
	"City": "Riverdale",
	"State": "UT",
	"latitude": 41.1732,
	"longitude": -112.0024
},
{
	"City": "Salem",
	"State": "UT",
	"latitude": 40.054,
	"longitude": -111.672
},
{
	"City": "Hyrum",
	"State": "UT",
	"latitude": 41.6311,
	"longitude": -111.8418
},
{
	"City": "Santa Clara",
	"State": "UT",
	"latitude": 37.1311,
	"longitude": -113.6561
},
{
	"City": "Summit Park",
	"State": "UT",
	"latitude": 40.7432,
	"longitude": -111.5814
},
{
	"City": "Richfield",
	"State": "UT",
	"latitude": 38.7628,
	"longitude": -112.0926
},
{
	"City": "South Weber",
	"State": "UT",
	"latitude": 41.1334,
	"longitude": -111.9392
},
{
	"City": "Providence",
	"State": "UT",
	"latitude": 41.7033,
	"longitude": -111.8121
},
{
	"City": "Plain City",
	"State": "UT",
	"latitude": 41.307,
	"longitude": -112.0877
},
{
	"City": "Farr West",
	"State": "UT",
	"latitude": 41.3015,
	"longitude": -112.0318
},
{
	"City": "Ephraim",
	"State": "UT",
	"latitude": 39.3564,
	"longitude": -111.5847
},
{
	"City": "Moab",
	"State": "UT",
	"latitude": 38.5701,
	"longitude": -109.5477
},
{
	"City": "Roosevelt",
	"State": "UT",
	"latitude": 40.2924,
	"longitude": -110.0093
},
{
	"City": "Enoch",
	"State": "UT",
	"latitude": 37.767,
	"longitude": -113.0449
},
{
	"City": "Nibley",
	"State": "UT",
	"latitude": 41.6725,
	"longitude": -111.8454
},
{
	"City": "Harrisville",
	"State": "UT",
	"latitude": 41.2853,
	"longitude": -111.9859
},
{
	"City": "Nephi",
	"State": "UT",
	"latitude": 39.7072,
	"longitude": -111.8323
},
{
	"City": "Snyderville",
	"State": "UT",
	"latitude": 40.7042,
	"longitude": -111.5438
},
{
	"City": "Fruit Heights",
	"State": "UT",
	"latitude": 41.0277,
	"longitude": -111.9081
},
{
	"City": "West Bountiful",
	"State": "UT",
	"latitude": 40.8982,
	"longitude": -111.9082
},
{
	"City": "White City",
	"State": "UT",
	"latitude": 40.5666,
	"longitude": -111.8636
},
{
	"City": "Sunset",
	"State": "UT",
	"latitude": 41.1392,
	"longitude": -112.0285
},
{
	"City": "Midway",
	"State": "UT",
	"latitude": 40.5183,
	"longitude": -111.4745
},
{
	"City": "Perry",
	"State": "UT",
	"latitude": 41.4648,
	"longitude": -112.0401
},
{
	"City": "Kanab",
	"State": "UT",
	"latitude": 37.0262,
	"longitude": -112.5219
},
{
	"City": "Hyde Park",
	"State": "UT",
	"latitude": 41.8008,
	"longitude": -111.8119
},
{
	"City": "Gunnison",
	"State": "UT",
	"latitude": 39.157,
	"longitude": -111.8135
},
{
	"City": "Silver Summit",
	"State": "UT",
	"latitude": 40.7434,
	"longitude": -111.4905
},
{
	"City": "La Verkin",
	"State": "UT",
	"latitude": 37.2308,
	"longitude": -113.2523
},
{
	"City": "Elk Ridge",
	"State": "UT",
	"latitude": 40.0099,
	"longitude": -111.6775
},
{
	"City": "Morgan",
	"State": "UT",
	"latitude": 41.0414,
	"longitude": -111.6802
},
{
	"City": "Maeser",
	"State": "UT",
	"latitude": 40.4719,
	"longitude": -109.5786
},
{
	"City": "Wellsville",
	"State": "UT",
	"latitude": 41.6223,
	"longitude": -111.943
},
{
	"City": "Mountain Green",
	"State": "UT",
	"latitude": 41.1475,
	"longitude": -111.7901
},
{
	"City": "Manti",
	"State": "UT",
	"latitude": 39.2669,
	"longitude": -111.6351
},
{
	"City": "Blanding",
	"State": "UT",
	"latitude": 37.6213,
	"longitude": -109.5072
},
{
	"City": "Delta",
	"State": "UT",
	"latitude": 39.3623,
	"longitude": -112.5467
},
{
	"City": "Mount Pleasant",
	"State": "UT",
	"latitude": 39.5408,
	"longitude": -111.4558
},
{
	"City": "Kamas",
	"State": "UT",
	"latitude": 40.6499,
	"longitude": -111.2723
},
{
	"City": "Beaver",
	"State": "UT",
	"latitude": 38.2759,
	"longitude": -112.6383
},
{
	"City": "Parowan",
	"State": "UT",
	"latitude": 37.8326,
	"longitude": -112.8296
},
{
	"City": "Hildale",
	"State": "UT",
	"latitude": 37.0171,
	"longitude": -112.9786
},
{
	"City": "Richmond",
	"State": "UT",
	"latitude": 41.923,
	"longitude": -111.8075
},
{
	"City": "Fillmore",
	"State": "UT",
	"latitude": 38.964,
	"longitude": -112.3387
},
{
	"City": "Castle Dale",
	"State": "UT",
	"latitude": 39.2218,
	"longitude": -111.0229
},
{
	"City": "Erda",
	"State": "UT",
	"latitude": 40.6028,
	"longitude": -112.3214
},
{
	"City": "Salina",
	"State": "UT",
	"latitude": 38.9366,
	"longitude": -111.8665
},
{
	"City": "Garland",
	"State": "UT",
	"latitude": 41.7361,
	"longitude": -112.1627
},
{
	"City": "Monroe",
	"State": "UT",
	"latitude": 38.6229,
	"longitude": -112.1198
},
{
	"City": "Millville",
	"State": "UT",
	"latitude": 41.685,
	"longitude": -111.8212
},
{
	"City": "Helper",
	"State": "UT",
	"latitude": 39.6898,
	"longitude": -110.8597
},
{
	"City": "Naples",
	"State": "UT",
	"latitude": 40.4318,
	"longitude": -109.4913
},
{
	"City": "River Heights",
	"State": "UT",
	"latitude": 41.7219,
	"longitude": -111.8195
},
{
	"City": "Monticello",
	"State": "UT",
	"latitude": 37.8684,
	"longitude": -109.3384
},
{
	"City": "Willard",
	"State": "UT",
	"latitude": 41.4146,
	"longitude": -112.0446
},
{
	"City": "Huntington",
	"State": "UT",
	"latitude": 39.3301,
	"longitude": -110.9628
},
{
	"City": "Marriott-Slaterville",
	"State": "UT",
	"latitude": 41.2624,
	"longitude": -112.0366
},
{
	"City": "Enterprise",
	"State": "UT",
	"latitude": 37.5717,
	"longitude": -113.743
},
{
	"City": "Mona",
	"State": "UT",
	"latitude": 39.8122,
	"longitude": -111.8502
},
{
	"City": "Lewiston",
	"State": "UT",
	"latitude": 41.9615,
	"longitude": -111.8797
},
{
	"City": "Oakley",
	"State": "UT",
	"latitude": 40.7257,
	"longitude": -111.2788
},
{
	"City": "Toquerville",
	"State": "UT",
	"latitude": 37.2666,
	"longitude": -113.2951
},
{
	"City": "South Willard",
	"State": "UT",
	"latitude": 41.3583,
	"longitude": -112.0408
},
{
	"City": "Duchesne",
	"State": "UT",
	"latitude": 40.1753,
	"longitude": -110.394
},
{
	"City": "Panguitch",
	"State": "UT",
	"latitude": 37.8232,
	"longitude": -112.4348
},
{
	"City": "Honeyville",
	"State": "UT",
	"latitude": 41.6361,
	"longitude": -112.0857
},
{
	"City": "Wellington",
	"State": "UT",
	"latitude": 39.5358,
	"longitude": -110.7344
},
{
	"City": "Coalville",
	"State": "UT",
	"latitude": 40.912,
	"longitude": -111.413
},
{
	"City": "Emigration Canyon",
	"State": "UT",
	"latitude": 40.7886,
	"longitude": -111.7414
},
{
	"City": "Woodland Hills",
	"State": "UT",
	"latitude": 40.0132,
	"longitude": -111.6558
},
{
	"City": "Francis",
	"State": "UT",
	"latitude": 40.6105,
	"longitude": -111.2744
},
{
	"City": "Genola",
	"State": "UT",
	"latitude": 40.0117,
	"longitude": -111.8464
},
{
	"City": "Moroni",
	"State": "UT",
	"latitude": 39.5271,
	"longitude": -111.5832
},
{
	"City": "Ferron",
	"State": "UT",
	"latitude": 39.0913,
	"longitude": -111.1337
},
{
	"City": "Centerfield",
	"State": "UT",
	"latitude": 39.1275,
	"longitude": -111.8189
},
{
	"City": "Wendover",
	"State": "UT",
	"latitude": 40.7241,
	"longitude": -114.025
},
{
	"City": "Benson",
	"State": "UT",
	"latitude": 41.7489,
	"longitude": -111.9169
},
{
	"City": "Mendon",
	"State": "UT",
	"latitude": 41.7102,
	"longitude": -111.9776
},
{
	"City": "Milford",
	"State": "UT",
	"latitude": 38.3945,
	"longitude": -113.0123
},
{
	"City": "Wolf Creek",
	"State": "UT",
	"latitude": 41.3253,
	"longitude": -111.8288
},
{
	"City": "Fairview",
	"State": "UT",
	"latitude": 39.6299,
	"longitude": -111.4368
},
{
	"City": "Uintah",
	"State": "UT",
	"latitude": 41.1427,
	"longitude": -111.9334
},
{
	"City": "Carbonville",
	"State": "UT",
	"latitude": 39.6272,
	"longitude": -110.8337
},
{
	"City": "Orangeville",
	"State": "UT",
	"latitude": 39.2308,
	"longitude": -111.0591
},
{
	"City": "West Mountain",
	"State": "UT",
	"latitude": 40.0654,
	"longitude": -111.7868
},
{
	"City": "Fountain Green",
	"State": "UT",
	"latitude": 39.6281,
	"longitude": -111.6413
},
{
	"City": "Elwood",
	"State": "UT",
	"latitude": 41.6758,
	"longitude": -112.1377
},
{
	"City": "Ballard",
	"State": "UT",
	"latitude": 40.2949,
	"longitude": -109.9493
},
{
	"City": "Spring City",
	"State": "UT",
	"latitude": 39.4799,
	"longitude": -111.4918
},
{
	"City": "Daniel",
	"State": "UT",
	"latitude": 40.4668,
	"longitude": -111.4097
},
{
	"City": "Aurora",
	"State": "UT",
	"latitude": 38.9201,
	"longitude": -111.934
},
{
	"City": "Paradise",
	"State": "UT",
	"latitude": 41.5682,
	"longitude": -111.8334
},
{
	"City": "Hideout",
	"State": "UT",
	"latitude": 40.6438,
	"longitude": -111.4015
},
{
	"City": "Spring Glen",
	"State": "UT",
	"latitude": 39.6561,
	"longitude": -110.8461
},
{
	"City": "Henefer",
	"State": "UT",
	"latitude": 41.0138,
	"longitude": -111.4933
},
{
	"City": "Mantua",
	"State": "UT",
	"latitude": 41.5006,
	"longitude": -111.9344
},
{
	"City": "Benjamin",
	"State": "UT",
	"latitude": 40.0945,
	"longitude": -111.7387
},
{
	"City": "Levan",
	"State": "UT",
	"latitude": 39.5562,
	"longitude": -111.8608
},
{
	"City": "Green River",
	"State": "UT",
	"latitude": 38.9935,
	"longitude": -110.1723
},
{
	"City": "Liberty",
	"State": "UT",
	"latitude": 41.3426,
	"longitude": -111.8649
},
{
	"City": "Minersville",
	"State": "UT",
	"latitude": 38.2335,
	"longitude": -112.9606
},
{
	"City": "Goshen",
	"State": "UT",
	"latitude": 39.951,
	"longitude": -111.9008
},
{
	"City": "Bear River City",
	"State": "UT",
	"latitude": 41.6124,
	"longitude": -112.125
},
{
	"City": "Central",
	"State": "UT",
	"latitude": 37.415,
	"longitude": -113.6263
},
{
	"City": "Elsinore",
	"State": "UT",
	"latitude": 38.6834,
	"longitude": -112.1488
},
{
	"City": "Leeds",
	"State": "UT",
	"latitude": 37.2372,
	"longitude": -113.3471
},
{
	"City": "Rocky Ridge",
	"State": "UT",
	"latitude": 39.9197,
	"longitude": -111.8258
},
{
	"City": "Oljato-Monument Valley",
	"State": "UT",
	"latitude": 37.0309,
	"longitude": -110.2512
},
{
	"City": "Apple Valley",
	"State": "UT",
	"latitude": 37.081,
	"longitude": -113.1034
},
{
	"City": "Copperton",
	"State": "UT",
	"latitude": 40.566,
	"longitude": -112.098
},
{
	"City": "Veyo",
	"State": "UT",
	"latitude": 37.3375,
	"longitude": -113.693
},
{
	"City": "Newton",
	"State": "UT",
	"latitude": 41.8611,
	"longitude": -111.9906
},
{
	"City": "Riverside",
	"State": "UT",
	"latitude": 41.8106,
	"longitude": -112.1403
},
{
	"City": "Annabella",
	"State": "UT",
	"latitude": 38.7059,
	"longitude": -112.0586
},
{
	"City": "Granite",
	"State": "UT",
	"latitude": 40.5711,
	"longitude": -111.7959
},
{
	"City": "Escalante",
	"State": "UT",
	"latitude": 37.7649,
	"longitude": -111.6
},
{
	"City": "Eden",
	"State": "UT",
	"latitude": 41.3022,
	"longitude": -111.8086
},
{
	"City": "Dammeron Valley",
	"State": "UT",
	"latitude": 37.3042,
	"longitude": -113.6658
},
{
	"City": "Corinne",
	"State": "UT",
	"latitude": 41.5497,
	"longitude": -112.1227
},
{
	"City": "Redmond",
	"State": "UT",
	"latitude": 39.0058,
	"longitude": -111.8671
},
{
	"City": "Clarkston",
	"State": "UT",
	"latitude": 41.9204,
	"longitude": -112.0504
},
{
	"City": "Hinckley",
	"State": "UT",
	"latitude": 39.3336,
	"longitude": -112.6736
},
{
	"City": "Eureka",
	"State": "UT",
	"latitude": 39.9588,
	"longitude": -112.1149
},
{
	"City": "Lake Shore",
	"State": "UT",
	"latitude": 40.1322,
	"longitude": -111.7483
},
{
	"City": "West Wood",
	"State": "UT",
	"latitude": 39.6051,
	"longitude": -110.8424
},
{
	"City": "Stockton",
	"State": "UT",
	"latitude": 40.4496,
	"longitude": -112.3674
},
{
	"City": "Timber Lakes",
	"State": "UT",
	"latitude": 40.4733,
	"longitude": -111.2533
},
{
	"City": "Virgin",
	"State": "UT",
	"latitude": 37.2082,
	"longitude": -113.2086
},
{
	"City": "Oak City",
	"State": "UT",
	"latitude": 39.3762,
	"longitude": -112.3391
},
{
	"City": "Huntsville",
	"State": "UT",
	"latitude": 41.2602,
	"longitude": -111.7741
},
{
	"City": "Thatcher",
	"State": "UT",
	"latitude": 41.6815,
	"longitude": -112.3201
},
{
	"City": "Springdale",
	"State": "UT",
	"latitude": 37.1816,
	"longitude": -113.0048
},
{
	"City": "Garden City",
	"State": "UT",
	"latitude": 41.937,
	"longitude": -111.4122
},
{
	"City": "Wanship",
	"State": "UT",
	"latitude": 40.8168,
	"longitude": -111.4151
},
{
	"City": "Myton",
	"State": "UT",
	"latitude": 40.1933,
	"longitude": -110.0624
},
{
	"City": "Marion",
	"State": "UT",
	"latitude": 40.6813,
	"longitude": -111.2828
},
{
	"City": "Fort Duchesne",
	"State": "UT",
	"latitude": 40.2811,
	"longitude": -109.877
},
{
	"City": "Orderville",
	"State": "UT",
	"latitude": 37.254,
	"longitude": -112.6574
},
{
	"City": "Spanish Valley",
	"State": "UT",
	"latitude": 38.4743,
	"longitude": -109.421
},
{
	"City": "Dugway",
	"State": "UT",
	"latitude": 40.2307,
	"longitude": -112.7541
},
{
	"City": "Loa",
	"State": "UT",
	"latitude": 38.4038,
	"longitude": -111.6451
},
{
	"City": "Central Valley",
	"State": "UT",
	"latitude": 38.6992,
	"longitude": -112.0967
},
{
	"City": "Peter",
	"State": "UT",
	"latitude": 41.7716,
	"longitude": -111.9859
},
{
	"City": "Amalga",
	"State": "UT",
	"latitude": 41.8565,
	"longitude": -111.8974
},
{
	"City": "Aneth",
	"State": "UT",
	"latitude": 37.2051,
	"longitude": -109.1623
},
{
	"City": "Trenton",
	"State": "UT",
	"latitude": 41.9116,
	"longitude": -111.9356
},
{
	"City": "Mayfield",
	"State": "UT",
	"latitude": 39.1192,
	"longitude": -111.7078
},
{
	"City": "Paragonah",
	"State": "UT",
	"latitude": 37.8854,
	"longitude": -112.7707
},
{
	"City": "Spring Lake",
	"State": "UT",
	"latitude": 40.0054,
	"longitude": -111.7474
},
{
	"City": "Tropic",
	"State": "UT",
	"latitude": 37.6293,
	"longitude": -112.0914
},
{
	"City": "Big Water",
	"State": "UT",
	"latitude": 37.0729,
	"longitude": -111.6608
},
{
	"City": "Randolph",
	"State": "UT",
	"latitude": 41.6644,
	"longitude": -111.1857
},
{
	"City": "Rush Valley",
	"State": "UT",
	"latitude": 40.3613,
	"longitude": -112.4506
},
{
	"City": "Circleville",
	"State": "UT",
	"latitude": 38.1684,
	"longitude": -112.2716
},
{
	"City": "Charleston",
	"State": "UT",
	"latitude": 40.4661,
	"longitude": -111.4599
},
{
	"City": "Kanosh",
	"State": "UT",
	"latitude": 38.8024,
	"longitude": -112.4378
},
{
	"City": "Fielding",
	"State": "UT",
	"latitude": 41.8126,
	"longitude": -112.1174
},
{
	"City": "Glenwood",
	"State": "UT",
	"latitude": 38.7625,
	"longitude": -111.988
},
{
	"City": "Palmyra",
	"State": "UT",
	"latitude": 40.1473,
	"longitude": -111.6979
},
{
	"City": "Plymouth",
	"State": "UT",
	"latitude": 41.8734,
	"longitude": -112.1454
},
{
	"City": "Sigurd",
	"State": "UT",
	"latitude": 38.8507,
	"longitude": -111.9673
},
{
	"City": "Neola",
	"State": "UT",
	"latitude": 40.4342,
	"longitude": -110.0309
},
{
	"City": "Cleveland",
	"State": "UT",
	"latitude": 39.3494,
	"longitude": -110.8556
},
{
	"City": "Marysvale",
	"State": "UT",
	"latitude": 38.4384,
	"longitude": -112.2544
},
{
	"City": "Elberta",
	"State": "UT",
	"latitude": 39.9739,
	"longitude": -111.9553
},
{
	"City": "Halchita",
	"State": "UT",
	"latitude": 37.1314,
	"longitude": -109.9131
},
{
	"City": "Glendale",
	"State": "UT",
	"latitude": 37.3342,
	"longitude": -112.6035
},
{
	"City": "Kanarraville",
	"State": "UT",
	"latitude": 37.5378,
	"longitude": -113.181
},
{
	"City": "Elmo",
	"State": "UT",
	"latitude": 39.3877,
	"longitude": -110.8156
},
{
	"City": "Cedar Fort",
	"State": "UT",
	"latitude": 40.3414,
	"longitude": -112.1086
},
{
	"City": "Holden",
	"State": "UT",
	"latitude": 39.1003,
	"longitude": -112.2705
},
{
	"City": "Hoytsville",
	"State": "UT",
	"latitude": 40.8754,
	"longitude": -111.3846
},
{
	"City": "Montezuma Creek",
	"State": "UT",
	"latitude": 37.2563,
	"longitude": -109.303
},
{
	"City": "Wallsburg",
	"State": "UT",
	"latitude": 40.387,
	"longitude": -111.4194
},
{
	"City": "Alta",
	"State": "UT",
	"latitude": 40.5818,
	"longitude": -111.6229
},
{
	"City": "Deweyville",
	"State": "UT",
	"latitude": 41.693,
	"longitude": -112.0883
},
{
	"City": "Wales",
	"State": "UT",
	"latitude": 39.4853,
	"longitude": -111.636
},
{
	"City": "Samak",
	"State": "UT",
	"latitude": 40.6318,
	"longitude": -111.2244
},
{
	"City": "Joseph",
	"State": "UT",
	"latitude": 38.6247,
	"longitude": -112.2199
},
{
	"City": "Vernon",
	"State": "UT",
	"latitude": 40.0956,
	"longitude": -112.4457
},
{
	"City": "Castle Valley",
	"State": "UT",
	"latitude": 38.6325,
	"longitude": -109.3966
},
{
	"City": "Cornish",
	"State": "UT",
	"latitude": 41.9717,
	"longitude": -111.9565
},
{
	"City": "Bicknell",
	"State": "UT",
	"latitude": 38.3407,
	"longitude": -111.5441
},
{
	"City": "Scipio",
	"State": "UT",
	"latitude": 39.2491,
	"longitude": -112.1044
},
{
	"City": "Koosharem",
	"State": "UT",
	"latitude": 38.5136,
	"longitude": -111.8822
},
{
	"City": "Meadow",
	"State": "UT",
	"latitude": 38.8863,
	"longitude": -112.4073
},
{
	"City": "Avon",
	"State": "UT",
	"latitude": 41.5354,
	"longitude": -111.8125
},
{
	"City": "Sterling",
	"State": "UT",
	"latitude": 39.1934,
	"longitude": -111.6901
},
{
	"City": "Manila",
	"State": "UT",
	"latitude": 40.9922,
	"longitude": -109.721
},
{
	"City": "Deseret",
	"State": "UT",
	"latitude": 39.2876,
	"longitude": -112.6512
},
{
	"City": "La Sal",
	"State": "UT",
	"latitude": 38.3025,
	"longitude": -109.2645
},
{
	"City": "Altamont",
	"State": "UT",
	"latitude": 40.359,
	"longitude": -110.288
},
{
	"City": "Laketown",
	"State": "UT",
	"latitude": 41.8276,
	"longitude": -111.3243
},
{
	"City": "Whiterocks",
	"State": "UT",
	"latitude": 40.4722,
	"longitude": -109.9413
},
{
	"City": "Portage",
	"State": "UT",
	"latitude": 41.9756,
	"longitude": -112.2405
},
{
	"City": "Navajo Mountain",
	"State": "UT",
	"latitude": 37.047,
	"longitude": -110.79
},
{
	"City": "Rockville",
	"State": "UT",
	"latitude": 37.1478,
	"longitude": -113.0548
},
{
	"City": "Emery",
	"State": "UT",
	"latitude": 38.9251,
	"longitude": -111.2523
},
{
	"City": "Newcastle",
	"State": "UT",
	"latitude": 37.6629,
	"longitude": -113.5643
},
{
	"City": "Fayette",
	"State": "UT",
	"latitude": 39.2248,
	"longitude": -111.8542
},
{
	"City": "Cove",
	"State": "UT",
	"latitude": 41.9683,
	"longitude": -111.7793
},
{
	"City": "Garden",
	"State": "UT",
	"latitude": 41.8866,
	"longitude": -111.4328
},
{
	"City": "Lyman",
	"State": "UT",
	"latitude": 38.3966,
	"longitude": -111.5894
},
{
	"City": "Howell",
	"State": "UT",
	"latitude": 41.7733,
	"longitude": -112.445
},
{
	"City": "Peoa",
	"State": "UT",
	"latitude": 40.7257,
	"longitude": -111.338
},
{
	"City": "Woodland",
	"State": "UT",
	"latitude": 40.5838,
	"longitude": -111.2356
},
{
	"City": "Bluff",
	"State": "UT",
	"latitude": 37.2867,
	"longitude": -109.5745
},
{
	"City": "Torrey",
	"State": "UT",
	"latitude": 38.3078,
	"longitude": -111.4269
},
{
	"City": "Boulder",
	"State": "UT",
	"latitude": 37.9228,
	"longitude": -111.4319
},
{
	"City": "Leamington",
	"State": "UT",
	"latitude": 39.5313,
	"longitude": -112.2855
},
{
	"City": "Bluebell",
	"State": "UT",
	"latitude": 40.3576,
	"longitude": -110.2232
},
{
	"City": "Interlaken",
	"State": "UT",
	"latitude": 40.5413,
	"longitude": -111.4749
},
{
	"City": "New Harmony",
	"State": "UT",
	"latitude": 37.4803,
	"longitude": -113.3096
},
{
	"City": "Summit",
	"State": "UT",
	"latitude": 37.8013,
	"longitude": -112.935
},
{
	"City": "Henrieville",
	"State": "UT",
	"latitude": 37.5638,
	"longitude": -112.002
},
{
	"City": "Jensen",
	"State": "UT",
	"latitude": 40.3695,
	"longitude": -109.3556
},
{
	"City": "Bryce Canyon City",
	"State": "UT",
	"latitude": 37.6814,
	"longitude": -112.1587
},
{
	"City": "Hanksville",
	"State": "UT",
	"latitude": 38.3724,
	"longitude": -110.7138
},
{
	"City": "Teasdale",
	"State": "UT",
	"latitude": 38.2851,
	"longitude": -111.4723
},
{
	"City": "Woodruff",
	"State": "UT",
	"latitude": 41.5212,
	"longitude": -111.1639
},
{
	"City": "Kenilworth",
	"State": "UT",
	"latitude": 39.6803,
	"longitude": -110.8145
},
{
	"City": "Independence",
	"State": "UT",
	"latitude": 40.4108,
	"longitude": -111.2958
},
{
	"City": "Clawson",
	"State": "UT",
	"latitude": 39.139,
	"longitude": -111.0933
},
{
	"City": "White Mesa",
	"State": "UT",
	"latitude": 37.4596,
	"longitude": -109.46
},
{
	"City": "Cannonville",
	"State": "UT",
	"latitude": 37.5687,
	"longitude": -112.053
},
{
	"City": "Snowville",
	"State": "UT",
	"latitude": 41.9728,
	"longitude": -112.7164
},
{
	"City": "Junction",
	"State": "UT",
	"latitude": 38.2357,
	"longitude": -112.2238
},
{
	"City": "Pine Valley",
	"State": "UT",
	"latitude": 37.3904,
	"longitude": -113.5061
},
{
	"City": "Tabiona",
	"State": "UT",
	"latitude": 40.3544,
	"longitude": -110.7096
},
{
	"City": "Kingston",
	"State": "UT",
	"latitude": 38.2067,
	"longitude": -112.1793
},
{
	"City": "Fairfield",
	"State": "UT",
	"latitude": 40.2462,
	"longitude": -112.0843
},
{
	"City": "Hatch",
	"State": "UT",
	"latitude": 37.6494,
	"longitude": -112.4345
},
{
	"City": "Dutch John",
	"State": "UT",
	"latitude": 40.9301,
	"longitude": -109.4042
},
{
	"City": "Antimony",
	"State": "UT",
	"latitude": 38.103,
	"longitude": -111.9823
},
{
	"City": "Flaming Gorge",
	"State": "UT",
	"latitude": 40.889,
	"longitude": -109.4751
},
{
	"City": "Alton",
	"State": "UT",
	"latitude": 37.4303,
	"longitude": -112.5061
},
{
	"City": "Lynndyl",
	"State": "UT",
	"latitude": 39.5085,
	"longitude": -112.3933
},
{
	"City": "Cache",
	"State": "UT",
	"latitude": 41.8308,
	"longitude": -112.0052
},
{
	"City": "Fremont",
	"State": "UT",
	"latitude": 38.4554,
	"longitude": -111.6149
},
{
	"City": "Thompson Springs",
	"State": "UT",
	"latitude": 38.9636,
	"longitude": -109.7037
},
{
	"City": "Tselakai Dezza",
	"State": "UT",
	"latitude": 37.21,
	"longitude": -109.609
},
{
	"City": "Brian Head",
	"State": "UT",
	"latitude": 37.6977,
	"longitude": -112.8416
},
{
	"City": "Beryl Junction",
	"State": "UT",
	"latitude": 37.7009,
	"longitude": -113.6535
},
{
	"City": "Randlett",
	"State": "UT",
	"latitude": 40.2267,
	"longitude": -109.8308
},
{
	"City": "Cedar Highlands",
	"State": "UT",
	"latitude": 37.6295,
	"longitude": -113.0667
},
{
	"City": "Ophir",
	"State": "UT",
	"latitude": 40.3719,
	"longitude": -112.2498
},
{
	"City": "Echo",
	"State": "UT",
	"latitude": 40.9803,
	"longitude": -111.4393
},
{
	"City": "Clear Creek",
	"State": "UT",
	"latitude": 39.6429,
	"longitude": -111.1547
},
{
	"City": "Sutherland",
	"State": "UT",
	"latitude": 39.3896,
	"longitude": -112.64
},
{
	"City": "Oasis",
	"State": "UT",
	"latitude": 39.2923,
	"longitude": -112.629
},
{
	"City": "Scofield",
	"State": "UT",
	"latitude": 39.7198,
	"longitude": -111.1623
}]